ID,city,lat,lon
r1,Atlanta,33.7489924,-84.3902644
r2,Chicago,41.8755616,-87.6244212
r3,Memphis,35.1335022,-89.9668758
r4,Kansas City,39.100105,-94.5781416
r5,Dallas,32.7762719,-96.7968559
r6,Denver,39.7392364,-104.9848623
r7,Columbus,39.9622601,-83.0007065
r8,Phoenix,33.4484367,-112.07414
r9,Lafayette,30.2082,-92.0325
r10,St. Louis,38.6359,-90.2451
r11,Albuquerque,35.1054,-106.6465
r12,Omaha,41.2627,-96.0529