ID,city,lat,lon
r1,Atlanta,33.7489924,-84.3902644
r2,Chicago,41.8755616,-87.6244212
r3,Memphis,35.1335022,-89.9668758
r4,Kansas City ,39.100105,-94.5781416
r5,Dallas ,32.7762719,-96.7968559
r6,Denver ,39.7392364,-104.9848623
r7,Columbus ,39.9622601,-83.0007065