ID,name,country,lat,long,supply
pt_los_angeles,Port of Los Angeles,US,33.71882348,-118.3032012,1800
pt_new_jersey,Port of New Jersey,US,40.68420306,-74.00755051,2000
pt_new_york,Port of New York,US,40.757308,-73.989735,1400
pt_norfolk,Port of Norfolk,US,36.96443025,-76.34088046,2000
pt_savannah,Port of Savannah,US,32.12595659,-81.12954013,1000
pt_tacoma,Port of Tacoma,US,47.2662396,-122.3972609,2000